[
  {
    "name": "Astoria",
    "lat": 46.187885,
    "lon": -123.831253
  },
  {
    "name": "Seaside",
    "lat": 45.993099,
    "lon": -123.920631
  },
  {
    "name": "Nehalem",
    "lat": 45.717670,
    "lon": -123.896248
  },
  {
    "name": "Tillamook",
    "lat": 45.456051,
    "lon": -123.838249
  },
  {
    "name": "Lincoln City",
    "lat": 44.973862,
    "lon": -124.013428
  },
  {
    "name": "Newport",
    "lat": 44.6400704084296,
    "lon": -124.05058664295393
  },
  {
    "name": "Dunes City",
    "lat": 43.89162100849001,
    "lon": -124.11942131522629
  },
  {
    "name": "Coos Bay",
    "lat": 43.36049057729167,
    "lon": -124.21247464909156
  },
  {
    "name": "Port Orford",
    "lat": 42.74428775724935,
    "lon": -124.49580263062833
  },
  {
    "name": "Gold Beach",
    "lat": 42.40928627875571,
    "lon": -124.4204847306881
  },
  {
    "name": "Brookings",
    "lat": 42.0527378241554,
    "lon": -124.28095115384464
  }
]
